source: geolocation:3, stream: success, id: {}, [{"id":"851159649890045952","text":"I'm sorry mom & dad id rather be a rockstar than an anesthesiologist","lat":"36.1956322","lng":"-115.2582622","time":"1491767248000","location":"Vegas/Detroit","state":"Nevada","sentimentScore":null}]
source: geolocation:3, stream: success, id: {}, [{"id":"851159650821169152","text":"I think it's crazy how much I relate to oomf! Who would've thought!?","lat":"29.4759552","lng":"-95.04628890000001","time":"1491767249000","location":"Need A Beer, TX","state":"Texas","sentimentScore":null}]
source: geolocation:3, stream: success, id: {}, [{"id":"851159652280795138","text":"Chillin' at the end of my lunch break, laid out on the couch. @ Indio, California https://t.co/jxqAkyUXMD","lat":"33.720318","lng":"-116.2319189","time":"1491767249000","location":"Bermuda Dunes, California","state":"California","sentimentScore":null}]
source: geolocation:3, stream: success, id: {}, [{"id":"851159652683231233","text":"@UtahLibertarian hi John, thanks for the follow","lat":"35.0255342","lng":"-116.3523627","time":"1491767249000","location":"Southern California ","state":"California","sentimentScore":null}]
source: geolocation:3, stream: success, id: {}, [{"id":"851159652561760262","text":"go  Washington huskies go in baseball logo on the twitter https://t.co/HXV0YB809F","lat":"42.6152932","lng":"-71.3175195","time":"1491767249000","location":"Boston, MA, lowell  ma!","state":"Massachusetts","sentimentScore":null}]
source: geolocation:3, stream: success, id: {}, [{"id":"851159653341958144","text":"üíÄ https://t.co/CuoFMQQACj","lat":"35.0583288","lng":"-106.5579326","time":"1491767249000","location":"bx","state":"New Mexico","sentimentScore":null}]
source: geolocation:3, stream: success, id: {}, [{"id":"851159653157404673","text":"#greenvillephotographer #greenvilleweddingphotographer #yeahthatgreenville‚Ä¶ https://t.co/jKrLDGDEBR","lat":"34.9441","lng":"-82.365128","time":"1491767249000","location":"Asheville, NC","state":"South Carolina","sentimentScore":null}]
source: geolocation:3, stream: success, id: {}, [{"id":"851159653857865734","text":"So close @OleMissSoftball","lat":"37.5158852","lng":"-84.80494929999999","time":"1491767249000","location":"Behind closed doors","state":"Kentucky","sentimentScore":null}]
source: geolocation:3, stream: success, id: {}, [{"id":"851159653694177281","text":"Bye bye ball! ROY Seager sends the cutter yard.  üêê #LetsGoDodgers @DodgersNation","lat":"42.27700360000001","lng":"-71.0911843","time":"1491767249000","location":"Boston/Mattapan, MA","state":"Massachusetts","sentimentScore":null}]
source: geolocation:3, stream: success, id: {}, [{"id":"851159652821848065","text":"I'm at BB Rover's Cafe & Pub in Austin, TX https://t.co/Nh9YrLZHxg https://t.co/UkSO4szsJu","lat":"30.4306074","lng":"-97.7642831","time":"1491767249000","location":"30.42021773,-97.7472849","state":"Texas","sentimentScore":null}]
source: geolocation:3, stream: success, id: {}, [{"id":"851159655556325376","text":"üì∑@ValeCanigliaDP  caught me off guard @ New York, New York https://t.co/7dAqlORHWB","lat":"40.7141095","lng":"-74.0066095","time":"1491767250000","location":"New York, NY  & San Diego ","state":"New York","sentimentScore":null}]
source: geolocation:3, stream: success, id: {}, [{"id":"851159656118403072","text":"Want to work at BAYADA Home Health Care? We're #hiring in #Glenmoore, PA! Click for details: https://t.co/1d3TCsDoxX #HealthWelfare #Job","lat":"40.088954","lng":"-75.772854","time":"1491767250000","location":"Philadelphia, PA","state":"Pennsylvania","sentimentScore":null}]
source: geolocation:3, stream: success, id: {}, [{"id":"851159656298827776","text":"\"He knows what he did\" üòÇüíÄ","lat":"33.9534876","lng":"-117.3961588","time":"1491767250000","location":"Riverside, CA","state":"California","sentimentScore":null}]
source: geolocation:3, stream: success, id: {}, [{"id":"851159655925428224","text":"Join the Starbucks team! See our latest #job opening here: https://t.co/2zOZBT7tw0 #Hospitality #EllicottCity, MD #Veterans #Hiring","lat":"39.2767358","lng":"-76.8308892","time":"1491767250000","location":"Baltimore, MD","state":"Maryland","sentimentScore":null}]
source: geolocation:3, stream: success, id: {}, [{"id":"851159656324005888","text":"The #Hokies trail Clemson 7-3 in the eighth inning. VT is trying to avoid the sweep.","lat":"37.2296198","lng":"-80.4139216","time":"1491767250000","location":"Blacksburg, VA","state":"Virginia","sentimentScore":null}]
source: geolocation:3, stream: success, id: {}, [{"id":"851159656768655363","text":"finna stop texting with emojis","lat":"33.4419345","lng":"-94.03768459999999","time":"1491767250000","location":"Texarkana. AR|TX.","state":"Arkansas","sentimentScore":null}]
source: geolocation:3, stream: success, id: {}, [{"id":"851159657368268800","text":"Want to work at Accountemps? We're #hiring in #Pleasanton, CA! Click for details: https://t.co/iMKUOjm1bb #Accounting #Job #Jobs","lat":"37.68744239999999","lng":"-121.9131944","time":"1491767250000","location":"The Peninsula, CA","state":"California","sentimentScore":null}]
source: geolocation:3, stream: success, id: {}, [{"id":"851159657565401088","text":"Want to work in #Columbus, Georgia? View our latest opening: https://t.co/0h2bVVGmXQ #Nursing #Job #Jobs #Hiring","lat":"32.4609766","lng":"-84.9877229","time":"1491767250000","location":"Georgia","state":"Georgia","sentimentScore":null}]
source: geolocation:3, stream: success, id: {}, [{"id":"851159657624109056","text":"We're #hiring! Read about our latest #job opening here: Owner Operators Class A, Expedited Shipments - https://t.co/OcfJOojOGs #CareerArc","lat":"42.270928","lng":"-89.09428199999999","time":"1491767250000","location":"Illinois","state":"Illinois","sentimentScore":null}]
source: geolocation:3, stream: success, id: {}, [{"id":"851159657511096320","text":"@basicallyjordan its paris and tanner! haha","lat":"40.7127461","lng":"-74.005974","time":"1491767250000","location":"New York, USA","state":"New York","sentimentScore":null}]
